Tipo,Nome/Sigla,Endereco,Bairro,Computadores Disponiveis,Latitude,Longitude
Centro de Inclusão Digital,ONG BRASIL MELHOR | PROJETO BRASIL MELHOR,"RUA CRISTIANO OTONI, 133",Santa Terezinha,10.0,-19.8679346,-43.999463
Centro de Inclusão Digital,GRUPO DE APOIO SOCIAL SOLIDARIEDADE - GASS,"RUA CONSELHEIRO ROCHA, 2300",Santa Tereza,20.0,-19.9168002,-43.9112113
Centro de Inclusão Digital,GRUPO DE APOIO A FAMÍLIA CARENTE - CEMASS,"RUA CINCO, 61",Conjunto Bonsucesso,10.0,-19.8405289,-43.9114353
Centro de Inclusão Digital,ASSOCIAÇÃO CULTURAL CASA DO BECO,"AVENIDA ARTUR BERNARDES, 3876",Vila Barragem Santa Lúcia,11.0,-19.9537659,-43.9474502
Centro de Inclusão Digital,CENTRO DE REFERÊNCIA DE ASSISTÊNCIA SOCIAL - CRAS VILA SUMARÉ,"RUA CIRILO GASPAR DE ARAUJO, 518",Aparecida Sétima Seção,7.0,-19.8936437,-43.960116
Centro de Inclusão Digital,PROJETO SOCIAL BATISTA EVANGELISTA FORÇA DO BEM,"AVENIDA DETETIVE EDUARDO FERNANDES, 560",Novo Aarão Reis,10.0,-19.8418072,-43.9051375
Centro de Inclusão Digital,MOVIMENTO FAMILIAR CRISTÃO - CASA MIGUEL MAGONE,"AVENIDA AMAZONAS, 3984",Prado,8.0,-19.9218027,-43.9435973
Centro de Inclusão Digital,CENTRO DE REFERÊNCIA EM SEGURANÇA ALIMENTAR E NUTRICIONAL - CERSAN MERCADO DA LAGOINHA,"AVENIDA PRESIDENTE ANTONIO CARLOS, 821",Lagoinha,10.0,-19.9048702,-43.9453042
Centro de Inclusão Digital,CENTRO DE REFERÊNCIA ESPECIALIZADO PARA POPULAÇÃO EM SITUAÇÃO DE RUA - CENTRO POP MIGUILIM,"RUA VARGINHA, 210",Colégio Batista,10.0,-19.9107763,-43.9363781
Centro de Inclusão Digital,CENTRO DE REFERÊNCIA DA PESSOA IDOSA - CRPI,"RUA PERDIZES, 336",Monsenhor Messias,11.0,-19.9099955,-43.9736647
Centro de Inclusão Digital,CENTRO CULTURAL LINDÉIA REGINA,"RUA ARISTOLINO BASILIO DE OLIVEIRA, 445",Lindéia,10.0,-19.9835904,-44.0549616
Centro de Inclusão Digital,CENTRO DE REFERÊNCIA DE ASSISTÊNCIA SOCIAL - CRAS VILA ANTENA,"RUA CENTRAL, 78",Vila Antena,11.0,-19.8244384,-43.9866117
Centro de Inclusão Digital,CENTRO DE REFERÊNCIA DE ASSISTÊNCIA SOCIAL - CRAS APOLÔNIA,"RUA VISCONDE DE ITABORAI, 304",Jardim Leblon,11.0,-19.8287997,-43.9871568
Centro de Inclusão Digital,CENTRO DE DEFESA COLETIVA,"RUA SAO TOMAZ DE AQUINO, 440",Santa Rita de Cássia,1.0,-19.9485821,-43.9395881
Centro de Inclusão Digital,FEDERAÇÃO NACIONAL DE EDUCAÇÃO E INTEGRAÇÃO DOS SURDOS - FENEIS,"RUA ALBITA, 144",Cruzeiro,11.0,-19.9409843,-43.9266567
Centro de Inclusão Digital,OBRA SOCIAL DA PARÓQUIA SÃO GABRIEL,"RUA THEODORO BONFIM, 85",Taquaril,21.0,-19.9158205,-43.8836548
Centro de Inclusão Digital,INSTITUTO DE GERIATRIA AFONSO PENA - IGAP,"RUA DOMINGOS VIEIRA, 586",Santa Efigênia,4.0,-19.9233876,-43.9211577
Centro de Inclusão Digital,LAR DOS IDOSOS CLOTILDE MARTINS - SSVP,"RUA CAMPINA VERDE, 407",Salgado Filho,3.0,-19.9467634,-43.9808703
Centro de Inclusão Digital,SOCIEDADE DE AMPARO A POBREZA | LAR DOS IDOSOS RECANTO DA SAUDADE,"RUA CARMELITA PRATES DA SILVA, 393",Salgado Filho,4.0,-19.9442992,-43.985514
Centro de Inclusão Digital,Escola Aberta Marconi,"AVENIDA DO CONTORNO, 8476",Santo Agostinho,Não Informado,-19.9315187,-43.9552913
Centro de Inclusão Digital,Escola Aberta Paulo Mendes Campos,"AVENIDA ASSIS CHATEAUBRIAND, 429",Floresta,Não Informado,-19.9171499,-43.9295202
Centro de Inclusão Digital,Escola Aberta Presidente João Pessoa,"RUA CONGONHAS, 639",Santo Antônio,Não Informado,-19.943448,-43.9409148
Centro de Inclusão Digital,Escola Aberta Doutor Júlio Soares,"RUA SAO VICENTE, 200",Granja de Freitas,Não Informado,-19.9082415,-43.884215
Centro de Inclusão Digital,Escola Aberta Emídio Berutto,"RUA CONCEICAO DO PARA, 1726",Santa Inês,Não Informado,-19.8808389,-43.9118618
Centro de Inclusão Digital,Escola Aberta Professor Lourenço de Oliveira,"RUA ANHANGUERA, 47",Santa Tereza,Não Informado,-19.9133297,-43.9205716
Centro de Inclusão Digital,Escola Aberta Américo René Giannetti,"RUA JUNDIAI, 557",Concórdia,Não Informado,-19.8989217,-43.9404217
Centro de Inclusão Digital,Escola Aberta Governador Carlos Lacerda,"RUA PRINCESA LEOPOLDINA, 490",Ipiranga,Não Informado,-19.8853135,-43.9324323
Centro de Inclusão Digital,Escola Aberta Monteiro Lobato,"RUA SANTA APOLONIA, 120",São Marcos,Não Informado,-19.8751402,-43.9101364
Centro de Inclusão Digital,Escola Aberta Murilo Rubião,"RUA UM, 10",Acaiaca,Não Informado,-19.8328695,-43.9352226
Centro de Inclusão Digital,Escola Aberta Professora Helena Abdalla,"RUA ARNALDO LOURENCO, 602",Pousada Santo Antônio,Não Informado,-19.8584776,-43.886108
Centro de Inclusão Digital,Escola Aberta Professora Maria Mazarello,"RUA BENEDITO NEVES, 45",Nazaré,Não Informado,-19.8521356,-43.8923203
Centro de Inclusão Digital,Escola Aberta Dom Bosco,"RUA BICUIBA, 100",Dom Bosco,Não Informado,-19.9169065,-43.9993871
Centro de Inclusão Digital,Escola Aberta Dom Jaime de Barros Câmara,"RUA FREDERICO BRACHER JUNIOR, 123",Carlos Prates,Não Informado,-19.9169205,-43.9678101
Centro de Inclusão Digital,Escola Aberta Doutor José Diogo de Almeida Magalhães,"RUA CARMO DO RIO CLARO, 145",Pedreira Prado Lopes,Não Informado,-19.9028487,-43.9496022
Centro de Inclusão Digital,Escola Aberta Acadêmico Vivaldi Moreira,"RUA AGENOR DE PAULA ESTRELA, 393",Jaqueline,Não Informado,-19.8008862,-43.9356817
Centro de Inclusão Digital,Escola Aberta Desembargador Loreto Ribeiro de Abreu,"RUA MARCOS DONATO DE LIMA, 520",Ribeiro de Abreu,Não Informado,-19.8191432,-43.9025326
Centro de Inclusão Digital,Escola Aberta Hilda Rabello Matta,"RUA JOVENTINA DA ROCHA, 72",Heliópolis,Não Informado,-19.8450298,-43.9346688
Centro de Inclusão Digital,Escola Aberta Minervina Augusta,"RUA DAVID CANABARRO, 18",Campo Alegre,Não Informado,-19.8296808,-43.9466099
Centro de Inclusão Digital,Escola Aberta Sebastiana Novaes,"RUA ANITA MALFATTI, 60",Tupi B,Não Informado,-19.8418175,-43.9191837
Centro de Inclusão Digital,Escola Aberta Francisca Alves,"AVENIDA SANTA TEREZINHA, 8",Conjunto Lagoa,Não Informado,-19.8734559,-44.0055169
Centro de Inclusão Digital,Escola Aberta José Madureira Horta,"RUA JOAQUIM RAYMUNDO BRAGA, 40",Santa Amélia,Não Informado,-19.8359677,-43.980116
Centro de Inclusão Digital,Escola Aberta Santa Terezinha,"RUA CONCEICAO DA APARECIDA, 400",Santa Terezinha,Não Informado,-19.8724283,-44.0005325
Centro de Inclusão Digital,Escola Aberta Antônio Gomes Horta,"RUA ANTONIO JOSE DE OLIVEIRA, 161",Minascaixa,Não Informado,-19.8118425,-43.9551359
Centro de Inclusão Digital,Escola Aberta Cora Coralina,"RUA LISBOA, 54",Copacabana,Não Informado,-19.8352105,-43.9870071
Centro de Inclusão Digital,Escola Aberta Doutor José Xavier Nogueira,"RUA NAVARRA, 100",Europa,Não Informado,-19.8024934,-43.9628649
Centro de Inclusão Digital,Escola Aberta Joaquim dos Santos,"RUA ANTONIO JOSE DOS SANTOS, 300",Céu Azul,Não Informado,-19.8208276,-43.9969994
Centro de Inclusão Digital,Escola Aberta Padre Marzano Matias,"RUA ERICO VERISSIMO, 1280",Rio Branco,Não Informado,-19.8324098,-43.9112951
Centro de Inclusão Digital,Escola Aberta Presidente Tancredo Neves,"RUA RADIALISTA JOAQUIM DA FONSECA, 45",Céu Azul,Não Informado,-19.8183115,-44.0029763
Centro de Inclusão Digital,Escola Aberta Professor Pedro Guerra,"RUA JOAO FERREIRA DA SILVA, 230",Mantiqueira,Não Informado,-19.8012994,-44.0012953
Centro de Inclusão Digital,Escola Aberta Professora Ondina Nobre,"RUA RADIALISTA JOSE JUNQUILHO, 100",Céu Azul,Não Informado,-19.8245953,-44.0041421
Centro de Inclusão Digital,Escola Aberta Tancredo Phídeas Guimarães,"RUA SATURNO, 400",Parque São Pedro,Não Informado,-19.8148483,-43.950008
Centro de Inclusão Digital,Escola Aberta Vinícius de Moraes,"RUA SEBASTIAO MOREIRA, 409",Tirol,Não Informado,-19.9889517,-44.0384295
Centro de Inclusão Digital,Escola Aberta Rui da Costa Val,"RUA CECILIA TRINDADE SILVA, 30",Jardim Felicidade,Não Informado,-19.8304928,-43.9280339
Centro de Inclusão Digital,Escola Integrada Honorina Rabelo,"RUA MARIA CONCEICAO BONFIM, 315",Goiânia,Não Informado,-19.8580822,-43.8970408
Centro de Inclusão Digital,CENTRO DE APOIO COMUNITÁRIO MADRE JOSÉ,"RUA MUNDICA ROCHA ALVES, 220",Tupi B,11.0,-19.8300373,-43.9177369
Centro de Inclusão Digital,CENTRO DE REFERÊNCIA DE ASSISTÊNCIA SOCIAL - CRAS HAVAÍ,"RUA DONA NICOLINA LIMA, 316",Havaí,11.0,-19.9518769,-43.9748025
Centro de Inclusão Digital,Escola Aberta Sérgio Miranda,"RUA MINISTRO OSVALDO ARANHA, 345",Granja Werneck,Não Informado,-19.8307265,-43.9136881
Centro de Inclusão Digital,CENTRO DE REFERÊNCIA ESPECIALIZADO PARA POPULAÇÃO EM SITUAÇÃO DE RUA - CENTRO POP LESTE,"RUA CONSELHEIRO ROCHA, 351",Vila Dias,10.0,-19.9168002,-43.9112113
Centro de Inclusão Digital,CENTRO DE REFERÊNCIA DE ASSISTÊNCIA SOCIAL - CRAS VILA SÃO JOSÉ,"RUA JOAQUIM JOSE RIBEIRO, 50",Manacás,11.0,-19.9001783,-43.9956084
Centro de Inclusão Digital,CENTRO DE REFERÊNCIA DE ASSISTÊNCIA SOCIAL - CRAS GRANJA DE FREITAS,"RUA DO GRUPO, 12",Granja de Freitas,10.0,-19.9074797,-43.8826218
Centro de Inclusão Digital,CENTRO DE CONVIVÊNCIA OESTE,"RUA GENERAL ANDRADE NEVES, 25",Gutierrez,6.0,-19.9327932,-43.9615015
Centro de Inclusão Digital,CENTRO CULTURAL BAIRRO DAS INDÚSTRIAS,"RUA DOS INDUSTRIARIOS, 289",Bairro das Indústrias I,10.0,-19.965247,-43.9989743
Centro de Inclusão Digital,CENTRO DE REFERÊNCIA DE ASSISTÊNCIA SOCIAL - CRAS NOVO OURO PRETO,"RUA GERALDINA CANDIDA DE JESUS, 92",Ouro Preto,11.0,-19.8764528,-43.9877768
Centro de Inclusão Digital,Escola Municipal Jardim Leblon,"RUA SILVA XAVIER, 45",Jardim Leblon,Não Informado,-19.8268443,-43.9866846
Centro de Inclusão Digital,MOVIMENTO FAMILIAR CRISTÃO - MFC | CASA JOSÉ CARLOS,"RUA ANTONIO VERGARA, 20",Ouro Preto,12.0,-19.8687031,-43.9907368
Centro de Inclusão Digital,CENTRO COMUNITÁRIO MORRO DAS PEDRAS,"RUA MARCELO DE ARAUJO BRAGA, 472",São Jorge III,11.0,-19.9470809,-43.9621466
Centro de Inclusão Digital,CENTRO CULTURAL USINA DE CULTURA - NORDESTE,"RUA DOM CABRAL, 765",Ipiranga,8.0,-19.8861558,-43.9452844
Centro de Inclusão Digital,LAR DAS IDOSAS NOSSA SENHORA DA SAÚDE,"RUA POTUMAIO, 428",São Geraldo,3.0,-19.902063,-43.8996038
Centro de Inclusão Digital,FUNDAÇÃO CULTURAL DOS PROFISSIONAIS DA EDUCAÇÃO DE MINAS GERAIS - FCPEMG,"RUA DA BAHIA, 1032",Centro,10.0,-19.9234439,-43.9370287
Centro de Inclusão Digital,ASSOCIAÇÃO AMOR FRATERNO,"RUA ANTONIO CARLOS COUTINHO, 221",Pindorama,3.0,-19.9093387,-44.016505
Centro de Inclusão Digital,CENTRO DE REFERÊNCIA DE ASSISTÊNCIA SOCIAL - CRAS VISTA ALEGRE I,"RUA AGUANIL, 425",Vista Alegre,12.0,-19.9537658,-43.9964615
Centro de Inclusão Digital,CENTRO CULTURAL URUCUIA,"RUA W TRES, 500",Pongelupe,10.0,-20.0079827,-44.0064508
Centro de Inclusão Digital,ASSOCIAÇÃO BRASILEIRA DOS AGENTES PENITENCIÁRIOS - ABRAP,"RUA MANOEL ALEXANDRINO, 314",São Paulo,8.0,-19.8693063,-43.9241845
Centro de Inclusão Digital,ASSOCIAÇÃO AS SEMPRE VIVAS,"RUA CORONEL QUINTILIANO VALADARES, 140",Planalto,3.0,-19.8290231,-43.9579581
Centro de Inclusão Digital,LAR DA VOVÓ - ASILO NOSSA SENHORA DA PIEDADE,"RUA AZIZ ABDI, 55",Paquetá,2.0,-19.8773103,-43.9909997
Centro de Inclusão Digital,ASSOCIAÇÃO CRISTÃ FEMININA DE BH - RECANTO FELIZ SÃO FRANCISCO DE ASSIS,"RUA BONANCA, 128",Betânia,6.0,-19.9566881,-43.9885477
Centro de Inclusão Digital,CASA DA ESPERANÇA - NÚCLEO ASSISTENCIAL CAMINHOS PARA JESUS,"RUA JOSE FERREIRA MAGALHAES, 341",Floramar,5.0,-19.8353411,-43.9332718
Centro de Inclusão Digital,CENTRO DE CONVIVÊNCIA PAULO FAGUNDES DA FONSECA PENIDO,"RUA GILBERTO FREIRE, 800",Bonsucesso,3.0,-19.9901098,-43.9861688
Centro de Inclusão Digital,CIDADE OZANAM OBRA UNIDA DA SSPV | CASA DO ANCIÃO FRANCISCO AZEVEDO,"RUA OZANAM, 732",Ipiranga,6.0,-19.8831864,-43.9321468
Centro de Inclusão Digital,FUNDAÇÃO OBRAS SOCIAIS DA PARÓQUIA DA BOA VIAGEM | CASA SANTA ZITA,"RUA ALAGOAS, 315",Boa Viagem,2.0,-19.9292668,-43.9345321
Centro de Inclusão Digital,LAR CRISTO REI,"RUA ADELINA PATRICIA DE CARVALHO, 16",Diamante,4.0,-19.9900598,-44.0203141
Centro de Inclusão Digital,LAR DOS IDOSOS SANTA RITA DE CÁSSIA - SSVP,"RUA BARAO DE GUAXUPE, 362",João Pinheiro,2.0,-19.9324728,-44.0019758
Centro de Inclusão Digital,LAR DOS IDOSOS SANTO ANTÔNIO DE PÁDUA DE VENDA NOVA - SSVP,"RUA SAO VICENTE, 55",Venda Nova,2.0,-19.848478,-43.9131733
Centro de Inclusão Digital,LAR DE IDOSAS SANTA TEREZA E SANTA TEREZINHA,"RUA DIVINOPOLIS, 225",Santa Tereza,3.0,-19.9155146,-43.9118038
Centro de Inclusão Digital,LAR DOS IDOSOS SÃO JOSÉ,"RUA LAR DOS MENINOS, 200",Olhos d'Água,4.0,-19.9881928,-43.9597887
Centro de Inclusão Digital,LAR FREI ZACARIAS,"RUA SABINOPOLIS, 138",Carlos Prates,2.0,-19.9074527,-43.9593977
Centro de Inclusão Digital,REPÚBLICA NOSSA SENHORA DA ABADIA,"RUA IARA, 380",Vila São Rafael,2.0,-19.9165807,-43.9037771
Centro de Inclusão Digital,LAR DE IDOSAS PADRE LEOPOLDO MERTENS - SSVP,"RUA PADRE LEOPOLDO MERTENS, 1231",São Francisco,4.0,-19.8709374,-43.954146
Centro de Inclusão Digital,Escola Aberta Antônio Mourão Guimarães,"RUA INTERSINDICAL, 270",Flávio de Oliveira,Não Informado,-20.0019478,-44.0015394
Centro de Inclusão Digital,Escola Aberta Antônio Salles Barbosa,"RUA SABINO JOSE FERREIRA, 5",Tirol,Não Informado,-19.9855703,-44.04584
Centro de Inclusão Digital,Escola Aberta da Vila Pinho,"RUA COLETORA, 956",Vila Pinho,Não Informado,-20.0056774,-44.0213106
Centro de Inclusão Digital,Escola Aberta Dinorah Magalhães Fabri,"RUA PAVAO, 295",Esperança,Não Informado,-19.9936854,-43.9905821
Centro de Inclusão Digital,Escola Aberta Eloy Heraldo Lima,"RUA ENGRACIA COSTA E SILVA, 12",Vale do Jatobá,Não Informado,-20.0053464,-44.0413871
Centro de Inclusão Digital,Escola Aberta Helena Antipoff,"RUA ANTONIO EUSTAQUIO PIAZZA, 4020",Tirol,Não Informado,-19.9862304,-44.0375942
Centro de Inclusão Digital,Escola Aberta Ciac Lucas Monteiro Machado,"RUA OTAVIANO DE CARVALHO, 12",Vila Pinho,Não Informado,-20.0013061,-44.0257097
Centro de Inclusão Digital,Escola Aberta Pedro Nava,"RUA SAO PEDRO DA ALDEIA, 445",Serra do Curral,Não Informado,-20.0039375,-43.9746236
Centro de Inclusão Digital,Escola Aberta Padre Flávio Giammetta,"RUA SEBASTIAO MARIA DA SILVA, 175",Átila de Paiva,Não Informado,-19.977841,-44.0274252
Centro de Inclusão Digital,Escola Aberta Sebastião Guilherme de Oliveira,"RUA CALENDULA, 10",Olaria,Não Informado,-19.9896797,-44.0294387
Centro de Inclusão Digital,Escola Aberta União Comunitária,"RUA PROFESSOR LUIZ BICALHO, 505",Brasil Industrial,Não Informado,-19.99849,-44.01446
Centro de Inclusão Digital,Escola Aberta Professor Hilton Rocha,"RUA VICENTE SURETTE, 215",Mangueiras,Não Informado,-20.0125473,-44.0330998
Centro de Inclusão Digital,Escola Aberta Aurélio Buarque de Holanda,"RUA RAFAEL TOBIAS, 40",Lindéia,Não Informado,-19.9753689,-44.0590172
Centro de Inclusão Digital,Escola Aberta Cônego Sequeira,"RUA FLOR CHUVA DE PRATA, 40",Mineirão,Não Informado,-20.0238364,-44.0299225
Centro de Inclusão Digital,CENTRO DE REFERÊNCIA DE ASSISTÊNCIA SOCIAL - CRAS VILA SANTA RITA DE CÁSSIA,"RUA SAO TOMAZ DE AQUINO, 640",Santa Rita de Cássia,8.0,-19.9485821,-43.9395881
Centro de Inclusão Digital,CENTRO DE REFERÊNCIA DE ASSISTÊNCIA SOCIAL - CRAS VILA MARÇOLA,"RUA ENGENHEIRO LUCAS JULIO PROENCA, 73",Serra,11.0,-19.9386455,-43.9119411
Centro de Inclusão Digital,CENTRO CULTURAL VILA FÁTIMA,"RUA SAO MIGUEL ARCANJO, 215",Nossa Senhora de Fátima,10.0,-19.9324599,-43.9027307
Centro de Inclusão Digital,CENTRO DE CONVIVÊNCIA CÉZAR CAMPOS,"RUA ORENOCO, 68",Carmo,11.0,-19.9405333,-43.9298326
Centro de Inclusão Digital,Escola Aberta Mestre Paranhos,"RUA ALCIDA TORRES, 20",Conjunto Santa Maria,Não Informado,-19.9519773,-43.9614564
Centro de Inclusão Digital,Escola Aberta Padre Guilherme Peters,"RUA CORONEL JORGE DAVIS, 300",Nossa Senhora do Rosário,Não Informado,-19.9340876,-43.9156986
Centro de Inclusão Digital,Escola Aberta Professor Edson Pisani,"RUA NOSSA SENHORA DE FATIMA, 1015",Nossa Senhora de Fátima,Não Informado,-19.9277789,-43.9025205
Centro de Inclusão Digital,Escola Aberta Senador Levindo Coelho,"RUA CARACA, 850",Mangabeiras,Não Informado,-19.9422675,-43.9211123
Centro de Inclusão Digital,Escola Aberta Ulysses Guimarães,"RUA BOLIVIA, 532",Santa Rita de Cássia,Não Informado,-19.955168,-43.9411329
Centro de Inclusão Digital,CENTRO DE REFERÊNCIA DE ASSISTÊNCIA SOCIAL - CRAS ALTO VERA CRUZ,"RUA PADRE JULIO MARIA, 1550",Alto Vera Cruz,15.0,-19.9146305,-43.8887917
Centro de Inclusão Digital,CENTRO CULTURAL SÃO GERALDO,"RUA SILVA ALVARENGA, 548",São Geraldo,6.0,-19.8941504,-43.8976326
Centro de Inclusão Digital,CENTRO DE REFERÊNCIA DE ASSISTÊNCIA SOCIAL - CRAS TAQUARIL,"RUA PEDRO DE SINTRA, 77",Taquaril,10.0,-19.9180895,-43.8843208
Centro de Inclusão Digital,NÚCLEO DE ARTE E CULTURA DESEMBARGADOR MÁRCIO SOLERO - NAC,"RUA MIRANTE, 477",Mariano de Abreu,11.0,-19.8909765,-43.8903113
Centro de Inclusão Digital,CENTRO CULTURAL VILA MARÇOLA,"RUA MANGABEIRA DA SERRA, 320",Marçola,6.0,-19.9434995,-43.9121144
Centro de Inclusão Digital,Escola Aberta Levindo Lopes,"RUA FLUORINA, 1460",Paraíso,Não Informado,-19.9217832,-43.9044412
Centro de Inclusão Digital,Escola Aberta Maria das Neves,"RUA PIRANGA, 39",São Lucas,Não Informado,-19.9281495,-43.9200171
Centro de Inclusão Digital,Escola Aberta Professora Alcida Torres,"RUA ALVARO FERNANDES, 144",Taquaril,Não Informado,-19.9156678,-43.8844583
Centro de Inclusão Digital,Escola Aberta Israel Pinheiro,"RUA DESEMBARGADOR BRAULIO, 1147",Alto Vera Cruz,Não Informado,-19.9140694,-43.8893144
Centro de Inclusão Digital,Escola Aberta Padre Francisco de Carvalho,"RUA ITAITUBA, 12",São Geraldo,Não Informado,-19.8935466,-43.9002206
Centro de Inclusão Digital,Escola Aberta Professor Domiciano Vieira,"RUA SAO BENTO, 1591",Sagrada Família,Não Informado,-19.9017952,-43.9153053
Centro de Inclusão Digital,Escola Aberta Wladimir de Paula Gomes,"RUA UARIRA, 350",Casa Branca,Não Informado,-19.8998923,-43.8906479
Centro de Inclusão Digital,Escola Aberta Vila Fazendinha,"RUA PAULO DE SOUZA, 51",Fazendinha,Não Informado,-19.9312778,-43.9068186
Centro de Inclusão Digital,Escola Aberta São Rafael,"RUA CORONEL OTAVIO DINIZ, 31",Pompéia,Não Informado,-19.9149463,-43.9072982
Centro de Inclusão Digital,Escola Aberta Fernando Dias Costa,"RUA PEDRO ALEXANDRINO MENDONCA, 59",Conjunto Taquaril,Não Informado,-19.9186248,-43.8770209
Centro de Inclusão Digital,Escola Aberta Monsenhor João Rodrigues de Oliveira,"RUA ARAPARI, 95",São Geraldo,Não Informado,-19.8974449,-43.8940657
Centro de Inclusão Digital,Escola Aberta George Ricardo Salum,"RUA DESEMBARGADOR BRAULIO, 2250",Taquaril,Não Informado,-19.9140694,-43.8893144
Centro de Inclusão Digital,CENTRO DE REFERÊNCIA DE ASSISTÊNCIA SOCIAL - CRAS UNIÃO | ARTHUR DE SÁ,"RUA PROFESSOR GERALDO FONTES, 30",União,11.0,-19.8802305,-43.9198156
Centro de Inclusão Digital,Creche Casa do Sol,"RUA JUNIA CRISTINA, 120",Vista do Sol,Não Informado,-19.8518287,-43.8898167
Centro de Inclusão Digital,CENTRO DE REFERÊNCIA DE ASSISTÊNCIA SOCIAL - CRAS ZILÁH SPÓSITO,"RUA COQUILHO, 75",Jaqueline,9.0,-19.8042896,-43.9282442
Centro de Inclusão Digital,CENTRO SOCIAL DE APOIO À CRIANÇA E AO ADOLESCENTE PAULO VI,"RUA PACO DA LIBERDADE, 120",Conjunto Paulo VI,12.0,-19.8320276,-43.8884416
Centro de Inclusão Digital,CENTRO DE QUALIFICAÇÃO EM TECNOLOGIA DA INFORMAÇÃO - CQTI,"RUA JOSE CLEMENTE PEREIRA, 440",Ipiranga,95.0,-19.885488,-43.9312588
Centro de Inclusão Digital,OBRA SOCIAL DA PARÓQUIA NOSSA SENHORA DA ANUNCIAÇÃO - ASCON,"RUA CACIMBA DE AREIA, 201",São Gabriel,11.0,-19.8507446,-43.9095172
Centro de Inclusão Digital,Escola Aberta Pérsio Pereira Pinto,"ROD ANEL RODOVIARIO CELSO MELLO AZEVEDO, 28177",Tiradentes,Não Informado,-19.904521,-43.9851856
Centro de Inclusão Digital,Escola Aberta Prefeito Souza Lima,"RUA DOS PARAGUAIOS, 97",Jardim Vitória,Não Informado,-19.8546483,-43.8836807
Centro de Inclusão Digital,Escola Aberta Agenor Alves de Carvalho,"RUA AGENOR ALVES, 53",Nazaré,Não Informado,-19.8542683,-43.8955993
Centro de Inclusão Digital,Escola Aberta Anísio Teixeira,"RUA BOLIVAR, 10",União,Não Informado,-20.0094513,-44.0148567
Centro de Inclusão Digital,Escola Aberta Francisco Bressane de Azevedo,"RUA PADRE JOSE ALVES, 109",São Paulo,Não Informado,-19.9677679,-44.0278961
Centro de Inclusão Digital,Escola Aberta Sobral Pinto,"RUA DAS ALMAS, 1120",Conjunto Paulo VI,Não Informado,-19.8335174,-43.8820238
Centro de Inclusão Digital,Escola Aberta Hugo Pinheiro Soares,"RUA JUNDIAI, 567",Concórdia,Não Informado,-19.8989217,-43.9404217
Centro de Inclusão Digital,Escola Aberta José de Calasanz,"RUA SEBASTIAO SANTANA FILHO, 111",Ipê,Não Informado,-19.872129,-43.9048035
Centro de Inclusão Digital,Escola Aberta Maria Assunção de Marco,"RUA ANA HORTA, 98",Goiânia,Não Informado,-19.8582716,-43.9033689
Centro de Inclusão Digital,Escola Aberta Professora Maria Modesta Cravo,"RUA DOUTOR JULIO OTAVIANO FERREIRA, 1085",Cidade Nova,Não Informado,-19.8892477,-43.9227546
Centro de Inclusão Digital,Escola Aberta Oswaldo França Júnior,"RUA CIRCULAR, 335",São Gabriel,Não Informado,-19.8544804,-43.9124961
Centro de Inclusão Digital,Escola Aberta Professor Edgar da Matta Machado,"RUA PENALVA, 201",Dom Silvério,Não Informado,-19.8539506,-43.9059199
Centro de Inclusão Digital,Escola Aberta Professor Paulo Freire,"RUA PAULO CAMPOS MENDES, 311",Capitão Eduardo,Não Informado,-19.8291926,-43.8949181
Centro de Inclusão Digital,Escola Aberta Professora Acidália Lott,"RUA ANTONIO MARIANO DE ABREU, 10",Paulo VI,Não Informado,-19.842541,-43.8956741
Centro de Inclusão Digital,Escola Aberta Professora Consuelita Cândida,"RUA DOM SILVERIO GOMES PIMENTA, 301",Belmonte,Não Informado,-19.8455401,-43.90033
Centro de Inclusão Digital,Escola Aberta Henriqueta Lisboa,"RUA GEORGINA PADUA, 297",Penha,Não Informado,-19.8749953,-43.9133007
Centro de Inclusão Digital,Escola Aberta Honorina Rabello,"RUA MARIA CONCEICAO BONFIM, 315",Goiânia,Não Informado,-19.8580822,-43.8970408
Centro de Inclusão Digital,CENTRO DE APOIO COMUNITÁRIO - CAC SERRANO,"RUA TOCANTINS, 445",Conjunto Celso Machado,11.0,-19.8844573,-44.0101202
Centro de Inclusão Digital,ESCOLA PROFISSIONALIZANTE RAIMUNDA SILVA SOARES,"RUA CARMO DO RIO CLARO, 411",Pedreira Prado Lopes,20.0,-19.9028487,-43.9496022
Centro de Inclusão Digital,CENTRO DE REFERÊNCIA DE ASSISTÊNCIA SOCIAL - CRAS VILA SENHOR DOS PASSOS,"RUA EVARISTO DA VEIGA, 239",Senhor dos Passos,11.0,-19.9057953,-43.9487273
Centro de Inclusão Digital,IGREJA EVANGÉLICA TEMPLO DA BENÇÃO,"RUA JOAQUIM ASSIS RIBEIRO, 108",Califórnia,11.0,-19.9211912,-44.011445
Centro de Inclusão Digital,CENTRO CULTURAL PADRE EUSTÁQUIO - NOROESTE,"RUA JACUTINGA, 550",Padre Eustáquio,7.0,-19.9150016,-43.9883907
Centro de Inclusão Digital,CENTRO DE REFERÊNCIA DE ASSISTÊNCIA SOCIAL - CRAS VILA COQUEIRAL,"RUA AMENDITA, 322",Vila Coqueiral,8.0,-19.9138854,-44.0237552
Centro de Inclusão Digital,CENTRO INTEGRADO DE ATENDIMENTO AO MENOR - CIAME PINDORAMA,"RUA GUARARAPES, 1810",Pindorama,15.0,-19.9118085,-44.021598
Centro de Inclusão Digital,CENTRO DE REFERÊNCIA EM SAÚDE MENTAL INFANTIL - CERSAMI,"RUA MANHUMIRIM, 415",Padre Eustáquio,6.0,-19.9142606,-43.969397
Centro de Inclusão Digital,Escola Aberta Augusta Medeiros,"RUA GENERAL CLARK, 28",São Salvador,Não Informado,-19.8913009,-44.0145103
Centro de Inclusão Digital,Escola Aberta João Pinheiro,"RUA PADRE MANOEL BERNARDES, 303",Oeste,Não Informado,-19.9335794,-44.0000243
Centro de Inclusão Digital,Escola Aberta Luigi Toniolo,"RUA MAFRA, 124",Novo Glória,Não Informado,-19.9039828,-44.0227926
Centro de Inclusão Digital,Escola Aberta Prefeito Oswaldo Pieruccetti,"RUA CAITITE, 309",Conjunto Jardim Filadélfia,Não Informado,-19.909798,-44.0071451
Centro de Inclusão Digital,Escola Aberta Professor Cláudio Brandão,"RUA CANTAGALO, 1147",Aparecida,Não Informado,-19.8975886,-43.9515388
Centro de Inclusão Digital,Escola Aberta Professor Mário Werneck,"RUA ABATI, 10",Santa Maria,Não Informado,-19.9348952,-44.0146842
Centro de Inclusão Digital,ASSOCIAÇÃO INSTITUTO ULLY,"RUA CONSELHEIRO JOAQUIM CAETANO, 1447",Nova Granada,10.0,-19.9480038,-43.9677478
Centro de Inclusão Digital,CENTRO DE ASSISTÊNCIA BENEDITO VENÂNCIO,"RUA MARCELINO RAMOS, 281",Boa Vista,2.0,-19.8907906,-43.8980541
Centro de Inclusão Digital,Escola Aberta Padre Edeimar Massote,"RUA ENEIDA, 1485",Coqueiros,Não Informado,-19.8980983,-44.0216579
Centro de Inclusão Digital,Escola Aberta Marlene Pereira Rancante,"RUA DOS COMERCIANTES, 38",Alípio de Melo,Não Informado,-19.8966432,-44.0016876
Centro de Inclusão Digital,Escola Aberta Monsenhor Arthur de Oliveira,"RUA FORNACIARI, 157",Caiçaras,Não Informado,-19.9070144,-43.9647413
Centro de Inclusão Digital,Escola Aberta Professor João Camilo Torres,"RUA ESTER BATISTA VIEIRA, 12",Califórnia,Não Informado,-19.9295161,-44.0087954
Centro de Inclusão Digital,Escola Aberta Nossa Senhora do Amparo,"RUA HESPERIA, 300",Aparecida,Não Informado,-19.8899927,-43.9511024
Centro de Inclusão Digital,Escola Aberta Carlos Góis,"RUA MENDES DE OLIVEIRA, 446",Santo André,Não Informado,-19.9017729,-43.9521808
Centro de Inclusão Digital,Escola Aberta Ignácio de Andrade Melo,"RUA VIOLETA DE MELO, 988",Jardim São José,Não Informado,-19.8988869,-44.0052031
Centro de Inclusão Digital,Escola Aberta Júlia Paraíso,"RUA TIES, 100",Alípio de Melo,Não Informado,-19.8952136,-44.0068154
Centro de Inclusão Digital,CENTRO DE REFERÊNCIA DE ASSISTÊNCIA SOCIAL - CRAS PROVIDÊNCIA,"RUA RIO GRANDE, 375",Minaslândia,15.0,-19.8540192,-43.9326348
Centro de Inclusão Digital,Escola Integrada Minervina Augusta,"RUA ALBATROZ, 228",Vila Clóris,Não Informado,-19.8271996,-43.9469199
Centro de Inclusão Digital,Escola Aberta Florestan Fernandes,"RUA PAU-FERRO, 360",Solimões,Não Informado,-19.822566,-43.924341
Centro de Inclusão Digital,Escola Aberta José Maria dos Mares Guia,"RUA DOS BENEDITINOS, 180",Heliópolis,Não Informado,-19.8438922,-43.9415818
Centro de Inclusão Digital,Escola Aberta Tristão da Cunha,"RUA DOUTOR JOSE FEROLLA, 80",Planalto,Não Informado,-19.8372943,-43.942418
Centro de Inclusão Digital,Escola Aberta Francisco Campos,"RUA HERALDO BELISARIO, 190",Tupi A,Não Informado,-19.8349015,-43.9226563
Centro de Inclusão Digital,Escola Aberta Cônsul Antônio Cadar,"RUA PARNAIBA, 21",Minaslândia,Não Informado,-19.8505357,-43.9269744
Centro de Inclusão Digital,Escola Aberta Francisco Magalhães Gomes,"RUA DOS MAMOEIROS, 98",Vila Clóris,Não Informado,-19.821387,-43.9502631
Centro de Inclusão Digital,Escola Aberta Hélio Pellegrino,"RUA GUILHERME SOARES, 255",Aarão Reis,Não Informado,-19.8450521,-43.9244893
Centro de Inclusão Digital,Escola Aberta Jardim Felicidade,"RUA QUARENTA E SETE A, 250",Jardim Felicidade,Não Informado,-19.8239893,-43.9311762
Centro de Inclusão Digital,Escola Aberta Josefina Souza Lima,"RUA MARIA ORTIZ, 195",Minaslândia,Não Informado,-19.8559716,-43.9304407
Centro de Inclusão Digital,Escola Aberta Maria Silveira,"RUA LIBANIA PENA, 635",São Bernardo,Não Informado,-19.8469958,-43.9433785
Centro de Inclusão Digital,GRUPO DE APOIO À CRIANÇA E ADOLESCENTE DO CABANA,"RUA MONSENHOR PAULO BRASIL, 241",Cabana do Pai Tomás,14.0,-19.9496692,-43.9985059
Centro de Inclusão Digital,SOCIEDADE CRUZ DE MALTA,"RUA CACHOEIRA DE MINAS, 434",Gutierrez,11.0,-19.9475237,-43.9611949
Centro de Inclusão Digital,CENTRO CULTURAL SALGADO FILHO,"RUA NOVA PONTE, 22",Salgado Filho,6.0,-19.9463919,-43.9827584
Centro de Inclusão Digital,Escola Aberta Prefeito Aminthas de Barros,"RUA SAN SALVADOR, 71",Havaí,Não Informado,-19.9120776,-43.9479502
Centro de Inclusão Digital,Escola Aberta Oswaldo Cruz,"RUA SANTOS, 2200",Jardim América,Não Informado,-19.9505422,-43.9707656
Centro de Inclusão Digital,Escola Aberta Hugo Werneck,"RUA OSCAR TROMPOWSKY, 1372",Grajaú,Não Informado,-19.9369049,-43.9614399
Centro de Inclusão Digital,Escola Aberta Francisca de Paula,"RUA JULIO DE CASTILHO, 330",Cinquentenário,Não Informado,-19.9633719,-43.9802417
Centro de Inclusão Digital,Escola Aberta Deputado Milton Salles,"RUA TEOFILO FILHO, 222",Jardim América,Não Informado,-19.9546429,-43.9671612
Centro de Inclusão Digital,Escola Aberta Tenente Manoel Magalhães Penido,"RUA AMUR, 48",Betânia,Não Informado,-19.961431,-43.997199
Centro de Inclusão Digital,Escola Aberta João do Patrocínio,"RUA GUARIBU, 113",Nova Gameleira,Não Informado,-19.9442358,-43.9933514
Centro de Inclusão Digital,Escola Aberta Magalhães Drumond,"RUA CONTENDAS, 63",Alto Barroca,Não Informado,-19.9305076,-43.9712473
Centro de Inclusão Digital,Escola Aberta Salgado Filho,"RUA CLOVIS CYRILO LIMONGE, 151",Salgado Filho,Não Informado,-19.9508487,-43.9791944
Centro de Inclusão Digital,Escola Aberta Professora Efigênia Vidigal,"RUA JOSE GUALBERTO, 295",Palmeiras,Não Informado,-19.9698424,-43.9830941
Centro de Inclusão Digital,Escola Aberta Padre Henrique Brandão,"RUA CRISPIM JAQUES, 987",Vista Alegre,Não Informado,-19.9564881,-43.9992046
Centro de Inclusão Digital,Escola Aberta Mestre Ataíde,"RUA AUGUSTO JOSE DOS SANTOS, 560",Estrela do Oriente,Não Informado,-19.9677961,-43.9888073
Centro de Inclusão Digital,CENTRO CULTURAL PAMPULHA,"RUA EXPEDICIONARIO PAULO DE SOUZA, 185",Urca,8.0,-19.8709219,-44.0145578
Centro de Inclusão Digital,Escola Aberta Professora Alice Nacif,"RUA EXPEDICIONARIO PAULO DE SOUZA, 721",Confisco,Não Informado,-19.8709219,-44.0145578
Centro de Inclusão Digital,Escola Aberta Aurélio Pires,"RUA BARRINHA, 171",Indaiá,Não Informado,-19.8652662,-43.9525683
Centro de Inclusão Digital,Escola Aberta Vicente Guimarães,"RUA IZAURA PEREIRA ALMEIDA, 110",Letícia,Não Informado,-19.8096283,-43.9803864
Centro de Inclusão Digital,Escola Aberta Milton Campos,"RUA JOVINO RODRIGUES PEGO, 145",Mantiqueira,Não Informado,-19.7965085,-43.9847844
Centro de Inclusão Digital,Escola Aberta Gracy Vianna Lage,"RUA JOAO SOARES LEAL, 23",Jardim dos Comerciários,Não Informado,-19.7888178,-43.9706055
Centro de Inclusão Digital,Escola Aberta Geraldo Teixeira da Costa,"RUA MARCIO LIMA PAIXAO, 8",Rio Branco,Não Informado,-19.8158097,-43.9770878
Centro de Inclusão Digital,Escola Aberta Eliza Buzelin,"RUA JAIR AFONSO INACIO, 277",Piratininga,Não Informado,-19.8052069,-43.9838337
Centro de Inclusão Digital,Escola Aberta Carlos Drummond de Andrade,"RUA JOSE GALDING, 21",Letícia,Não Informado,-19.8054111,-43.9791428
Centro de Inclusão Digital,Escola Aberta Armando Ziller,"RUA GERALDO ILIDIO TEIXEIRA, 283",Mantiqueira,Não Informado,-19.7842695,-43.9835018
Centro de Inclusão Digital,Escola Aberta Cônego Raimundo Trindade,"RUA BRODOSQUI, 51",Piratininga,Não Informado,-19.8072261,-43.9881944
Centro de Inclusão Digital,Escola Aberta Deputado Renato Azeredo,"RUA AGUA, 240",Maria Helena,Não Informado,-19.796703,-43.9921958
Centro de Inclusão Digital,Escola Aberta José Maria Alkimin,"RUA BENIGNO FAGUNDES DA SILVA, 33",Serra Verde,Não Informado,-19.798126,-43.9540771
Centro de Inclusão Digital,Escola Aberta Moysés Kalil,"RUA AFONSO PEREIRA DA SILVA, 10",Mantiqueira,Não Informado,-19.7902602,-43.9819019
Centro de Inclusão Digital,Escola Aberta Professor Moacyr Andrade,"RUA DOS CACADORES, 93",Lagoa,Não Informado,-19.8071841,-43.9968762
Centro de Inclusão Digital,Escola Aberta Professor Tabajara Pedroso,"RUA GERALDO ANUNCIACAO, 45",Rio Branco,Não Informado,-19.81189,-43.979006
Centro de Inclusão Digital,Escola Aberta Adauto Lúcio Cardoso,"RUA ERNESTO GAZZOLLI, 164",Céu Azul,Não Informado,-19.8165076,-43.9980509
Centro de Inclusão Digital,Escola Aberta Antônia Ferreira,"RUA JOAO GUALBERTO DE ABREU, 10",São João Batista,Não Informado,-19.8195909,-43.9610238
Centro de Inclusão Digital,Escola Aberta Dora Tomich Laender,"RUA JULITA NUNES LIMA, 53",Conjunto Minascaixa,Não Informado,-19.803883,-43.9563017
Centro de Inclusão Digital,Escola Aberta Professor Amílcar Martins,"RUA PRELUDIO, 54",Santa Amélia,Não Informado,-19.8321172,-43.9733901
Centro de Inclusão Digital,Escola Integrada Aurélio Buarque de Holanda,"RUA DAS AVENCAS, 277",Lindéia,Não Informado,-19.9765837,-44.0559546
Centro de Inclusão Digital,CENTRO CULTURAL VILA SANTA RITA,"RUA ANA RAFAEL DOS SANTOS, 149",Santa Rita,6.0,-20.0081143,-44.0307922
Centro de Inclusão Digital,Educandário Presbiteriano Renovado - EPRE,"RUA FLOR DA CACHOEIRINHA, 95",Jardim Alvorada,Não Informado,-19.8997445,-43.9909608
Centro de Inclusão Digital,CENTRO CULTURAL JARDIM GUANABARA,"RUA JOAO ALVARES CABRAL, 277",Jardim Guanabara,8.0,-19.8290574,-43.9328652
Centro de Inclusão Digital,Escola Aberta Professor Daniel Alvarenga,"RUA COQUILHO, 10",Jaqueline,Não Informado,-19.8042896,-43.9282442
Centro de Inclusão Digital,Escola Aberta Secretário Humberto de Almeida,"TRV SERRA DO ITATIAIA, 3",Ribeiro de Abreu,Não Informado,-19.8222848,-43.9021174
Centro de Inclusão Digital,CENTRO DE CONVIVÊNCIA CARLOS PRATES,"RUA MANHUMIRIM, 415",Padre Eustáquio,6.0,-19.9142606,-43.969397
Centro de Inclusão Digital,Escola Aberta Zilda Arns,"RUA ERVA MATE, 26",Piratininga,Não Informado,-19.8142161,-43.9939007
Centro de Inclusão Digital,Escola Aberta Dulce Maria Homem,"RUA TRES MARIAS, 221",Miramar,Não Informado,-19.994718,-44.0126781
Centro de Inclusão Digital,Escola Aberta Luiz Gatti,"RUA O GARIMPEIRO, 45",Ademar Maldonado,Não Informado,-19.9821941,-44.0266076
Centro de Inclusão Digital,Escola Aberta Professor Mello Cançado,"RUA DAS PETUNIAS, 2058",Lindéia,Não Informado,-19.9830573,-44.0451707
Centro de Inclusão Digital,Escola Aberta Professora Isaura Santos,"RUA HOFFMAN, 80",Santa Helena,Não Informado,-19.9930305,-44.0141172
Centro de Inclusão Digital,Escola Aberta Benjamim Jacob,"RUA VENEZUELA, 643",Sion,Não Informado,-19.953877,-43.9368454
Centro de Inclusão Digital,Escola Aberta IMACO,"RUA GONCALVES DIAS, 1180",Boa Viagem,Não Informado,-19.9261508,-43.95841
Centro de Inclusão Digital,ABRIGO FREI OTTO,"RUA RUI BARBOSA, 299",Santa Mônica,3.0,-19.8340551,-43.8717721
Centro de Inclusão Digital,LAR DONA PAULA,"RUA HENRIQUE GORCEIX, 315",Padre Eustáquio,5.0,-19.9173968,-43.979763
Centro de Inclusão Digital,LAR DOS IDOSOS RECANTO DOS AMIGOS,"RUA DAS PETUNIAS, 1814",Lindéia,4.0,-19.9830573,-44.0451707
Centro de Inclusão Digital,IGREJA BATISTA EM JATOBÁ,"RUA FABIOLA LEMOS NAVES, 12",Jatobá,15.0,-19.9896052,-44.0551277
Centro de Inclusão Digital,CENTRO DE REFERÊNCIA DE ASSISTÊNCIA SOCIAL - CRAS VILA BIQUINHAS,"RUA CORONEL JOAQUIM TIBURCIO, 850",Heliópolis,11.0,-19.8400458,-43.9410822
Centro de Inclusão Digital,CENTRO CULTURAL VENDA NOVA,"RUA JOSE FERREIRA DOS SANTOS, 184",Jardim dos Comerciários,4.0,-19.7967851,-43.9744254
Centro de Inclusão Digital,CENTRO DE REFERÊNCIA DE ASSISTÊNCIA SOCIAL - CRAS LAGOA,"RUA JOSE SABINO MACIEL, 120",Lagoa,5.0,-19.8087258,-43.9996667
Centro de Inclusão Digital,LAR DAS IDOSAS SANTA GEMA GALGÂNI - SSVP,"RUA APOLO, 507",Monsenhor Messias,2.0,-19.9080064,-43.9786315
Centro de Inclusão Digital,CRECHE COMUNITÁRIA TIA FRANCISCA,"RUA PAULO DUARTE, 320",Santa Cecília,11.0,-19.9998276,-44.0335071
Centro de Inclusão Digital,CENTRO DE REFERÊNCIA DE ASSISTÊNCIA SOCIAL - CRAS VILA MARIA,"RUA PROFESSOR AMILCAR VIANA MARTINS, 65",Jardim Vitória,7.0,-19.8492162,-43.8849273
Centro de Inclusão Digital,ASSOCIAÇÃO CENTRO DE UNIFICAÇÃO SOCIAL,"ROD MG CINCO, 430",Maria Goretti,10.0,-19.8604833,-43.9051796
Centro de Inclusão Digital,CENTRO DE REFERÊNCIA DE ASSISTÊNCIA SOCIAL - CRAS CONJUNTO PAULO VI,"RUA NEBLINA, 120",Conjunto Paulo VI,12.0,-19.8323585,-43.8874468
Centro de Inclusão Digital,IGREJA DO EVANGELHO QUADRANGULAR CARLOS PRATES,"RUA LAGOA SANTA, 303",Carlos Prates,10.0,-19.9154963,-43.9499486
Centro de Inclusão Digital,CENTRO DE CONVIVÊNCIA MARCUS MATRAGA | VENDA NOVA,"RUA EXPEDICIONARIO AMERICO FERNANDES, 116",São João Batista,11.0,-19.8232088,-43.9609217
Centro de Inclusão Digital,COMUNIDADE KOLPING MINAS CAIXA,"RUA PADRE ADOLFO KOLPING, 170",Minascaixa,12.0,-19.8050902,-43.9573116
Centro de Inclusão Digital,ASSOCIAÇÃO PRÓ-MELHORAMENTO DA VILA CEMIG,"RUA COLETIVO, 66",Vila CEMIG,10.0,-19.9963441,-43.992898
Centro de Inclusão Digital,ASSOCIAÇÃO DAS MULHERES DA VILA DA NOSSA SENHORA APARECIDA E SÃO LUCAS,"RUA PAULINO MARQUES GONTIJO, 222",Nossa Senhora da Aparecida,8.0,-19.9306781,-43.9170903
Centro de Inclusão Digital,AP 01,"AVENIDA AMAZONAS, 6728",VILA NOVA GAMELEIRA III,Não Informado,-19.9218027,-43.9435973
Centro de Inclusão Digital,AP 01,"RUA TENENTE MAURICIO SÁVIO, 122",VILA CASTELO DE MANACÁS,Não Informado,-19.8945535,-43.9936858
Centro de Inclusão Digital,AP 09,"RUA MAJOR MESQUITA, 72",VILA CASTELO DE MANACÁS,Não Informado,-19.8949548,-43.9942264
Centro de Inclusão Digital,AP 02,"BECO DA GROTA, 76",VILA CONJUNTO MINASCAIXA,Não Informado,-19.8019632,-43.9586689
Centro de Inclusão Digital,AP 17,"RUA EPHIGENIA NATIVIDADE, 12",VILA CASTELO DE MANACÁS,Não Informado,-19.8963904,-43.9935456
Centro de Inclusão Digital,AP 15,"RUA EPHIGENIA NATIVIDADE, 109",VILA CASTELO DE MANACÁS,Não Informado,-19.8963904,-43.9935456
Centro de Inclusão Digital,AP 11,"RUA EPHIGENIA NATIVIDADE, 60",VILA CASTELO DE MANACÁS,Não Informado,-19.8963904,-43.9935456
Centro de Inclusão Digital,AP 02,"RUA NOSSA SENHORA DA EUCARISTIA, 375",VILA BIQUINHAS,Não Informado,-19.8434206,-43.9444204
Centro de Inclusão Digital,AP 03,"RUA DOUTOR MIGUEL GONTIJO, 191",VILA BIQUINHAS,Não Informado,-19.8414219,-43.9433898
Centro de Inclusão Digital,AP 06,"RUA MIGUEL ARANHA DE AZEVEDO, 602",VILA BIQUINHAS,Não Informado,-19.8381718,-43.9438507
Centro de Inclusão Digital,AP 07,"RUA LOBO LEITE, 73",VILA BIQUINHAS,Não Informado,-19.8377347,-43.940347
Centro de Inclusão Digital,AP 05,"RUA DAS CLARISSAS, 1100",VILA BIQUINHAS,Não Informado,-19.839929,-43.9453474
Centro de Inclusão Digital,AP 01,"RUA ITABIRINHA, 67",VILA VARZEA DA PALMA,Não Informado,-19.8247568,-43.9852537
Centro de Inclusão Digital,AP 14,"RUA EPHIGENIA NATIVIDADE, 167",VILA CASTELO DE MANACÁS,Não Informado,-19.8963904,-43.9935456
Centro de Inclusão Digital,AP 01,"RUA DOS VICENTINOS, 382",VILA BIQUINHAS,Não Informado,-19.8433009,-43.9426926
Centro de Inclusão Digital,AP 02,"RUA TENENTE MAURICIO SAVIO, 201",VILA CASTELO DE MANACÁS,Não Informado,-19.8945535,-43.9936858
Centro de Inclusão Digital,AP 07,"RUA TENENTE MAURICIO SAVIO, S/N",VILA CASTELO DE MANACÁS,Não Informado,-19.8945535,-43.9936858
Centro de Inclusão Digital,AP 04,"AVENIDA BARONESA DE SANTA LUZIA, 265",VILA BIQUINHAS,Não Informado,-19.7946075,-43.9057925
Centro de Inclusão Digital,AP 01,"BECO DA GROTA, 205",VILA CONJUNTO MINASCAIXA,Não Informado,-19.8019632,-43.9586689
Centro de Inclusão Digital,AP 04,"RUA GERALDO JARDIM LINHARES, 34",VILA CASTELO DE MANACÁS,Não Informado,-19.894979,-43.9919019
Centro de Inclusão Digital,AP 02,"RUA SANTA MARIA, 20",VILA CONJUNTO NOVO DOM BOSCO,Não Informado,-19.8696998,-43.9089575
Centro de Inclusão Digital,AP 02,"BECO OPALA, 59",VILA SÃO FRANCISCO DAS CHAGAS,Não Informado,-19.9140926,-43.9618117
Centro de Inclusão Digital,AP 01,"RUA CINCO DE JULHO,",VILA BOA UNIÃO II,Não Informado,-19.858655,-43.9267135
Centro de Inclusão Digital,AP 01,"RUA SÃO LUIZ, 31B",VILA CONJUNTO NOVO DOM BOSCO,Não Informado,-19.9000932,-43.9176158
Centro de Inclusão Digital,AP02,"RUA FLOR VITÓRIA RÉGIA, 75",CONJUNTO FLORAMAR,Não Informado,-19.8297215,-43.9311971
Centro de Inclusão Digital,AP 03,"BECO OPALA, 60", VILA SÃO FRANCISCO DAS CHAGAS,Não Informado,-19.9140926,-43.9618117
Centro de Inclusão Digital,AP03,"RUA SANTO INÁCIO DE LOYOLA, 34",CONJUNTO FLORAMAR,Não Informado,-19.8280842,-43.92919
Centro de Inclusão Digital,AP 03,"BECO DAS CRIANÇAS, 48B",VILA MALOCA,Não Informado,-19.9473425,-44.0430716
Centro de Inclusão Digital,AP 02,"RUA COSTA JÚNIOR, 173",VILA MALOCA,Não Informado,-19.8800963,-43.9524845
Centro de Inclusão Digital,AP 02,"RUA COLUNA PRESTES, 79",VILA BOA UNIÃO II,Não Informado,-19.8580259,-43.9266909
Centro de Inclusão Digital,AP01,"RUA FLOR DE AÇUCENA, 46",CONJUNTO FLORAMAR,Não Informado,-19.8292531,-43.9316437
Centro de Inclusão Digital,AP 01,"RUA COSTA JUNIOR, 73",VILA MALOCA,Não Informado,-19.8800963,-43.9524845
Centro de Inclusão Digital,AP 03,"BECO E, 76", VILA BERNADETE,Não Informado,-19.9859295,-43.9856826
Centro de Inclusão Digital,AP 09,"RUA TREZE, 9",VILA BERNADETE,Não Informado,-19.9067396,-44.0282574
Centro de Inclusão Digital,AP 07,"RUA TREZE, 45",VILA BERNADETE,Não Informado,-19.9422998,-44.1118499
Centro de Inclusão Digital,AP 02,"RUA QUATORZE, 8",VILA BERNADETE,Não Informado,-19.8195606,-43.8844404
Centro de Inclusão Digital,AP 04,"RUA DOZE, 405",VILA BERNADETE,Não Informado,-19.8168445,-43.9365682
Centro de Inclusão Digital,AP 08,"RUA TREZE, 64",VILA BERNADETE,Não Informado,-19.9067396,-44.0282574
Centro de Inclusão Digital,AP 10,"RUA DO CAMPO,",VILA BERNADETE,Não Informado,-19.951857,-43.9739186
Centro de Inclusão Digital,VL-VILAINDIO-AP-RK12,"BECO BOA VISTA, 25",VILA DO ÍNDIO,Não Informado,-19.9517884,-43.9978136
Centro de Inclusão Digital,VL-VILAINDIO-AP-RK05,RUA DOS MAUES,VILA DO ÍNDIO,Não Informado,-19.830539,-43.9820136
Centro de Inclusão Digital,VL-VILAINDIO-AP-RK02,"BECO SANTA FÉ, 185",VILA DO ÍNDIO,Não Informado,-19.8310401,-43.9816488
Centro de Inclusão Digital,VL-VILAINDIO-AP-RK04,"BECO SANTA FÉ, 35",VILA DO ÍNDIO,Não Informado,-19.8310401,-43.9816488
Centro de Inclusão Digital,VL-VILAINDIO-AP-RK09,"BECO DOM SILVÉRIO, 16",VILA DO ÍNDIO,Não Informado,-19.8295213,-43.9829364
Centro de Inclusão Digital,VL-VILAINDIO-AP-RK06,"BECO UNIÃO, 30",VILA DO ÍNDIO,Não Informado,-19.8017875,-43.9597474
Centro de Inclusão Digital,VL-VILAINDIO-AP-RK07,"BECO DA NOVENA, 94",VILA DO ÍNDIO,Não Informado,-19.8295213,-43.9829364
Centro de Inclusão Digital,VL-VILAINDIO-AP-RK10,"RUA FRANÇA, 91B",VILA DO ÍNDIO,Não Informado,-19.9448479,-43.9690241
Centro de Inclusão Digital,VL-TC1-VILAINDIO,"BECO SANTA FÉ, 80",VILA DO ÍNDIO,Não Informado,-19.8310401,-43.9816488
Centro de Inclusão Digital,VL-VILAINDIO-AP-RK13,"BECO BOA VISTA, 112",VILA DO ÍNDIO,Não Informado,-19.9517884,-43.9978136
Centro de Inclusão Digital,VL-VILAINDIO-AP-RK16,"BECO CONCEIÇÃO DO IPANEMA, 11",VILA DO ÍNDIO,Não Informado,-19.8271009,-43.984205
Centro de Inclusão Digital,VL-VILAINDIO-AP-RK15,"BECO FLOR DE IPÊ, 70",VILA DO ÍNDIO,Não Informado,-19.8271274,-43.983945
Centro de Inclusão Digital,VL-VILAINDIO-AP-RK01,"RUA FRANCISCA GREGORY, 579",VILA DO ÍNDIO,Não Informado,-19.8336638,-43.9810293
Centro de Inclusão Digital,VL-VILAINDIO-AP-RK14,"RUA SANTA RITA DO ITUETO, 5",VILA DO ÍNDIO,Não Informado,-19.8281137,-43.9866742
Centro de Inclusão Digital,VL-VILAINDIO-AP-RK08,"BECO DOM SILVÉRIO, 35",VILA DO ÍNDIO,Não Informado,-19.8295213,-43.9829364
Centro de Inclusão Digital,VL-VILAINDIO-AP-RK17,"BECO DA NOVENA, 142",VILA DO ÍNDIO,Não Informado,-19.8295213,-43.9829364
Centro de Inclusão Digital,VL-VILAINDIO-AP-RK03,"BECO SANTA FÉ, 115",VILA DO ÍNDIO,Não Informado,-19.8310401,-43.9816488
Centro de Inclusão Digital,AP 04,"RUA GUIOMAR PARANHOS, 42",VILA ENGENHO NOGUEIRA,Não Informado,-19.8894826,-43.9855187
Centro de Inclusão Digital,AP 02,"RUA ENGENHO DO OURO, 175",VILA ENGENHO NOGUEIRA,Não Informado,-19.8901246,-43.9836151
Centro de Inclusão Digital,AP 01,"RUA VISCONDE DE CAIRU, 70",VILA CUSTODINHA,Não Informado,-19.9469543,-44.0060157
Centro de Inclusão Digital,AP 02,"RUA ANDRADE, 34",VILA CUSTODINHA,Não Informado,-19.9487215,-44.0074213
Centro de Inclusão Digital,AP 01,"RUA UM, 125",VILA MIRANTE,Não Informado,-19.8328695,-43.9352226
Centro de Inclusão Digital,AP 07,"RUA TRÊS, 160",VILA MIRANTE,Não Informado,-20.0046371,-44.0171686
Centro de Inclusão Digital,AP 02,"RUA DOIS, 160",VILA MIRANTE,Não Informado,-19.95698,-43.9966497
Centro de Inclusão Digital,AP 08,"RUA MUTUM, 282",VILA MARMITEIROS,Não Informado,-19.9204709,-43.9844043
Centro de Inclusão Digital,AP 05,"RUA NOSSA SENHORA DE FÁTIMA, 224",VILA MARMITEIROS,Não Informado,-19.9328781,-43.9033296
Centro de Inclusão Digital,AP 04,"RUA NOSSA SENHORA DE FÁTIMA, 305",VILA MARMITEIROS,Não Informado,-19.9277789,-43.9025205
Centro de Inclusão Digital,AP 03,"RUA NOSSA SENHORA DAS GRAÇAS, 8",VILA MARMITEIROS,Não Informado,-19.9201273,-43.9844709
Centro de Inclusão Digital,AP 02,"RUA NOSSA SENHORA DAS GRAÇAS, 167",VILA MARMITEIROS,Não Informado,-19.9206049,-43.9852424
Centro de Inclusão Digital,AP 08,"BECO MARCOS, 250",VILA PAQUETÁ,Não Informado,-19.9498044,-43.999895
Centro de Inclusão Digital,AP 03,"RUA GLAUBER ROCHA, 150",VILA PAQUETÁ,Não Informado,-19.8685235,-43.9941393
Centro de Inclusão Digital,AP 02,"BECO DA PAZ, 41",VILA PAQUETÁ,Não Informado,-19.82834,-44.0060516
Centro de Inclusão Digital,AP 01,"BECO DA ROSA, 69",VILA PAQUETÁ,Não Informado,-19.8663041,-43.9928804
Centro de Inclusão Digital,AP 10,"RUA CARLOS LAMARCA, 185",VILA CORUMBIARA ,Não Informado,-20.009474,-44.0137777
Centro de Inclusão Digital,AP 09,"RUA CARLOS LAMARCA, 83",VILA CORUMBIARA ,Não Informado,-20.009474,-44.0137777
Centro de Inclusão Digital,AP 08,"RUA LENIN, 19",VILA CORUMBIARA ,Não Informado,-20.0104855,-44.0134714
Centro de Inclusão Digital,AP 07,"RUA SÉRGIO RODRIGUES GOMES, 111",VILA CORUMBIARA ,Não Informado,-20.0094508,-44.0133162
Centro de Inclusão Digital,AP 05,"RUA NOSSA SENHORA APARECIDA, 190",VILA CORUMBIARA ,Não Informado,-19.910593,-44.0087974
Centro de Inclusão Digital,AP 04,"RUA NOSSA SENHORA APARECIDA, 77 ",VILA CORUMBIARA ,Não Informado,-19.910593,-44.0087974
Centro de Inclusão Digital,AP 03,"RUA NOSSA SENHORA APARECIDA, 153",VILA CORUMBIARA ,Não Informado,-19.910593,-44.0087974
Centro de Inclusão Digital,AP 01,"RUA NOSSA SENHORA APARECIDA, 7 ",VILA CORUMBIARA ,Não Informado,-19.910593,-44.0087974
Centro de Inclusão Digital,AP 05,"RUA UM, 59",VILA CONJUNTO BONSUCESSO,Não Informado,-19.8328695,-43.9352226
Centro de Inclusão Digital,AP 04,"AVENIDA CANAL, 74A",VILA CONJUNTO BONSUCESSO,Não Informado,-19.9784047,-43.9915159
Centro de Inclusão Digital,AP 03,"RUA RUFINA GARCIA SOARES, 45A",VILA CONJUNTO BONSUCESSO,Não Informado,-19.977884,-43.9915417
Centro de Inclusão Digital,AP 02,"RUA QUATRO, 14 ",VILA CONJUNTO BONSUCESSO,Não Informado,-19.9933696,-43.9643412
Centro de Inclusão Digital,VL-VILAINDIO-AP-RK18,"BECO BOA VISTA, 155",VILA DO ÍNDIO,Não Informado,-19.9517884,-43.9978136
Centro de Inclusão Digital,AP-RK20,"RUA CHILE, 56",VILA DO ÍNDIO,Não Informado,-19.950821,-43.9311314
Centro de Inclusão Digital,AP-RK22,"BECO DOM SILVÉRIO, 35",VILA DO ÍNDIO,Não Informado,-19.8295213,-43.9829364
Centro de Inclusão Digital,VL-VILAINDIO-AP-RK23,"BECO SÃO JOSÉ, 30",VILA DO ÍNDIO,Não Informado,-19.9781806,-43.9855698
Centro de Inclusão Digital,VL-VILAINDIO-AP-RK24,"BECO DOM SILVÉRIO, 95",VILA DO ÍNDIO,Não Informado,-19.8295213,-43.9829364
Centro de Inclusão Digital,VL-VILAINDIO-AP-RK25,"BECO BOA VISTA, 43/45",VILA DO ÍNDIO,Não Informado,-19.8272952,-43.9837056
Centro de Inclusão Digital,VL-VILAINDIO-AP-RK18,"RUA DOS COMANCHES, 245",VILA DO ÍNDIO,Não Informado,-19.8302728,-43.9815872
Centro de Inclusão Digital,AP 11,"BECO DOS CARVALHOS, 90",VILA ACABA MUNDO,Não Informado,-19.9609175,-43.9292306
Centro de Inclusão Digital,AP 10,"BECO DOS CARVALHOS, 63B",VILA ACABA MUNDO,Não Informado,-19.9609175,-43.9292306
Centro de Inclusão Digital,AP 09,"BECO DA IGREJA, 07",VILA ACABA MUNDO,Não Informado,-19.9326323,-43.903584
Centro de Inclusão Digital,AP 07,"BECO DA IGREJA, 41",VILA ACABA MUNDO,Não Informado,-19.9326323,-43.903584
Centro de Inclusão Digital,AP 04,"RUA DOS CARVALHOS, 201",VILA ACABA MUNDO,Não Informado,-19.5504055,-44.0856363
Centro de Inclusão Digital,AP 03,"BECO DA MINA, 152",VILA ACABA MUNDO,Não Informado,-19.9491708,-43.9988104
Centro de Inclusão Digital,AP 01,"RUA PASTOR JOSÉ RUFINO, 60",VILA CONJUNTO BONSUCESSO,Não Informado,-19.9778953,-43.9920449
Centro de Inclusão Digital,AP 01,"RUA PADRE JULIO LOMBAERDE, 117",VILA PUC,Não Informado,-19.9200256,-43.9942626
Centro de Inclusão Digital,AP-RK21,"BECO SANTA FÉ, 75",VILA DO ÍNDIO,Não Informado,-19.8310401,-43.9816488
Centro de Inclusão Digital,AP 03,"RUA OSCAR LOBO PEREIRA, 55",VILA BOA UNIÃO I,Não Informado,-19.8610788,-43.9277035
Centro de Inclusão Digital,AP 01,"RUA AIMEE SEMPLE MCPHERSON, 493",VILA SANTO ANTÔNIO,Não Informado,-19.8611847,-43.9579613
Centro de Inclusão Digital,AP 07,"BECO DO ANDRÉ, 150",VILA SÃO VICENTE,Não Informado,-19.8211375,-43.9623488
Centro de Inclusão Digital,AP 01,"RUA BELÉM, 2000",VILA BELÉM,Não Informado,-19.9911359,-44.0261494
Centro de Inclusão Digital,AP 04,"RUA SEIS A, 20",VILA BANDEIRANTES,Não Informado,-19.9944299,-43.9941308
Centro de Inclusão Digital,AP 01,"BECO SÃO JOSÉ, 40",VILA DOS ANJOS,Não Informado,-19.9781806,-43.9855698
Centro de Inclusão Digital,AP 04,"BECO SANTANA, 39",VILA DOS ANJOS,Não Informado,-19.9475565,-43.9629856
Centro de Inclusão Digital,AP 06,"BECO SOSSEGO, 75",VILA MONTE SÃO JOSÉ,Não Informado,-19.8529405,-43.9034027
Centro de Inclusão Digital,AP 11,"RUA DA ASSEMBLEIA, 149",VILA MONTE SÃO JOSÉ,Não Informado,-19.9424319,-43.952551
Centro de Inclusão Digital,AP 02,"RUA DOS BACURAUS, 570",VILA BACURAUS,Não Informado,-19.8261639,-43.9447635
Centro de Inclusão Digital,AP 08,"RUA ARAUA, 65",VILA ANDIROBA,Não Informado,-19.8659627,-43.9236364
Centro de Inclusão Digital,AP 01,"RUA ONESIMO SEPULVEDA E SILVA, 169",VILA SÃO DIMAS,Não Informado,-19.8603129,-43.9207654
Centro de Inclusão Digital,AP 02,"RUA MARIA DAS MERCES E SILVA, 225",VILA MARIETA II,Não Informado,-19.9918394,-44.0382275
Centro de Inclusão Digital,AP 01,"RUA ABÍLIO MEIRELES, 62",VILA BANDEIRANTES,Não Informado,-19.9504222,-43.9607094
Centro de Inclusão Digital,AP 02,"BECO FERNANDO, 45",VILA BANDEIRANTES,Não Informado,-20.0414458,-44.2142956
Centro de Inclusão Digital,AP 07,"RUA PACHA, 29",VILA MONTE SÃO JOSÉ,Não Informado,-19.9426573,-43.9523454
Centro de Inclusão Digital,AP 01,"RUA DOS TUCANOS, 16",VILA BACURAUS,Não Informado,-19.8260683,-43.9452796
Centro de Inclusão Digital,AP 01,"RUA NEFELINA, 105",VILA SÃO VICENTE,Não Informado,-19.918178,-43.9225929
Centro de Inclusão Digital,AP 05,"BECO EGITO, 91",VILA DOS ANJOS,Não Informado,-19.8201463,-43.9947545
Centro de Inclusão Digital,AP 14,"BECO COQUEIRO, 124",VILA MONTE SÃO JOSÉ,Não Informado,-19.9860502,-43.4538542
Centro de Inclusão Digital,AP 10,"TRAVESSA ANDIROBA, 143",VILA ANDIROBA,Não Informado,-19.8657849,-43.9263626
Centro de Inclusão Digital,AP 02,"TRAVESSA ANDIROBA, 24",VILA ANDIROBA,Não Informado,-19.8657849,-43.9263626
Centro de Inclusão Digital,AP 02,"BECO DO ANDRÉ, 270",VILA SÃO VICENTE,Não Informado,-19.8211375,-43.9623488
Centro de Inclusão Digital,AP 03,"RUA SEIS A, 163",VILA BANDEIRANTES,Não Informado,-19.9944299,-43.9941308
Centro de Inclusão Digital,AP 02,"RUA CORNELIO MACHADO, 30",VILA TRINTA E UM DE MARÇO,Não Informado,-19.9211791,-44.00029
Centro de Inclusão Digital,AP 10,"RUA EUCALIPTO, 80",VILA MONTE SÃO JOSÉ,Não Informado,-19.8922274,-43.9900502
Centro de Inclusão Digital,AP 04,"TRAVESSA ANDIROBA, 52",VILA ANDIROBA,Não Informado,-19.8657849,-43.9263626
Centro de Inclusão Digital,AP 02,"RUA ONOFRE FIRMINO DA SILVA, 155",VILA SÃO DIMAS,Não Informado,-19.8599963,-43.9198854
Centro de Inclusão Digital,AP 01,"RUA DESEMBARGADOR VELOSO, 20/30",VILA PARAÍSO,Não Informado,-19.9231361,-43.9015972
Centro de Inclusão Digital,AP 01,"RUA UM, 98",VILA TIROL,Não Informado,-19.8328695,-43.9352226
Centro de Inclusão Digital,AP 03,"RUA UM, 113A",VILA TIROL,Não Informado,-19.8328695,-43.9352226
Centro de Inclusão Digital,AP 06,"RUA AGUIA DOURADA, 40",VILA BERNADETE,Não Informado,-19.9837254,-43.9828314
Centro de Inclusão Digital,AP 12,"RUA DA ASSEMBLEIA, 187",VILA MONTE SÃO JOSÉ,Não Informado,-19.9424319,-43.952551
Centro de Inclusão Digital,AP 02,"BECO NOVA ERA, 57",VILA TIROL,Não Informado,-19.9539716,-43.9405001
Centro de Inclusão Digital,AP 03,"RUA ONESIMO SEPULVEDA E SILVA, 200",VILA SÃO DIMAS,Não Informado,-19.8603129,-43.9207654
Centro de Inclusão Digital,AP 08,"BECO DO ANDRÉ, 40",VILA SÃO VICENTE,Não Informado,-19.8211375,-43.9623488
Centro de Inclusão Digital,AP 02,"RUA JOSÉ DE OLIVEIRA, 84",VILA COPASA,Não Informado,-19.9926968,-44.004313
Centro de Inclusão Digital,AP 01,"RUA F, 50",VILA BERNADETE,Não Informado,-19.9982443,-44.0163251
Centro de Inclusão Digital,AP 03,"BECO SÃO MARCOS, 356",VILA DOS ANJOS,Não Informado,-19.9498044,-43.999895
Centro de Inclusão Digital,AP 09,"RUA PACHA, 180",VILA MONTE SÃO JOSÉ,Não Informado,-19.9426573,-43.9523454
Centro de Inclusão Digital,AP 01,"RUA ITU, 42",VILA DO POMBAL,Não Informado,-19.8906935,-43.9391618
Centro de Inclusão Digital,AP 01,"RUA DO COBRE, 159A",VILA FUMEC,Não Informado,-20.4016933,-43.5053152
Centro de Inclusão Digital,AP 01,"RUA BRASIL TRI CAMPEAO, 123",VILA TRINTA E UM DE MARÇO,Não Informado,-19.9216479,-44.0008498
Centro de Inclusão Digital,AP 03,"RUA IMBIACA, 84",VILA TRINTA E UM DE MARÇO,Não Informado,-19.920425,-43.9990361
Centro de Inclusão Digital,AP 01,"RUA ARCOS, 351",VILA VERA CRUZ II,Não Informado,-19.9123577,-43.8975507
Centro de Inclusão Digital,AP 02,"RUA MODESTINO ROCHA, 87",VILA NOVA CACHOEIRINHA II,Não Informado,-19.8879223,-43.9557503
Centro de Inclusão Digital,AP 01,"TRAVESSA ANDIROBA, 13",VILA ANDIROBA,Não Informado,-19.8657849,-43.9263626
Centro de Inclusão Digital,AP 02,"BECO SANTA MONICA, 91",VILA DOS ANJOS,Não Informado,-19.8202925,-43.995535
Centro de Inclusão Digital,AP 05,"BECO SOSSEGO, 30",VILA MONTE SÃO JOSÉ,Não Informado,-19.9426573,-43.9523454
Centro de Inclusão Digital,AP 04,"BECO GUAIAUNA, 294",VILA DELTA,Não Informado,-19.9241566,-44.0031973
Centro de Inclusão Digital,AP 05,"RUA QUINZE DE NOVEMBRO, 60",VILA DELTA,Não Informado,-19.923676,-44.0035337
Centro de Inclusão Digital,AP 01,"RUA CARAGUATATUBA, 64",VILA PIRATININGA A,Não Informado,-19.8129954,-43.993103
Centro de Inclusão Digital,AP 01,"RUA VILA REAL, 922",VILA REAL I,Não Informado,-19.875732,-43.9510254
Centro de Inclusão Digital,AP 03,"BECO GUAIAUNA, 180",VILA DELTA,Não Informado,-19.9241566,-44.0031973
Centro de Inclusão Digital,AP 01,"RUA DOUTOR BENEDITO XAVIER, 155A",VILA BOA UNIÃO I,Não Informado,-19.8627455,-43.9272915
Centro de Inclusão Digital,AP 01,"AVENIDA JOÃO XXIII, 649",VILA RICA SÃO JOSE,Não Informado,-19.8993318,-44.0008277
Centro de Inclusão Digital,AP 01,"RUA BELÉM, 653",VILA VERA CRUZ I,Não Informado,-19.9911359,-44.0261494
Centro de Inclusão Digital,AP 02,"BECO FELICIDADE, 40",VILA DELTA,Não Informado,-19.9314206,-43.9055606
Centro de Inclusão Digital,AP 03,"RUA RETIRO DAS CHÁCARAS, 76",VILA NOVA AMÉRICA,Não Informado,-19.796511,-43.9895198
Centro de Inclusão Digital,AP 02,"BECO VILA RICA, 15",VILA RICA SÃO JOSÉ,Não Informado,-19.9003715,-43.9962077
Centro de Inclusão Digital,AP 08,"RUA MIGUEL ARANHA DE AZEVEDO, 318",VILA BIQUINHAS,Não Informado,-19.8381718,-43.9438507
